{"meta": {"code": 200, "requestId": "5d2af71fd69ed00038a8133a"}, "response": {"venues": [{"id": "4e853babbe7b76bc4b78565b", "name": "\ub534\uacf5\uac04", "location": {"address": "\uc911\uad6c \uc30d\ub9bc\ub3d9 292 CJ\uc81c\uc77c\uc81c\ub2f9\uc13c\ud130 3\uce35", "crossStreet": "\ub0a8\uc131\uc804\uc6a9_\ub534\uacf5\uac04_\ud770\ub450\uad50\uc0ac\uc6d0\ub290\ub08c", "lat": 37.56313275262192, "lng": 127.00196826223491, "labeledLatLngs": [{"label": "display", "lat": 37.56313275262192, "lng": 127.00196826223491}], "distance": 405, "cc": "KR", "city": "\uc11c\uc6b8\ud2b9\ubcc4\uc2dc", "state": "\uc11c\uc6b8\ud2b9\ubcc4\uc2dc", "country": "\ub300\ud55c\ubbfc\uad6d", "formattedAddress": ["\uc911\uad6c \uc30d\ub9bc\ub3d9 292 CJ\uc81c\uc77c\uc81c\ub2f9\uc13c\ud130 3\uce35 (\ub0a8\uc131\uc804\uc6a9_\ub534\uacf5\uac04_\ud770\ub450\uad50\uc0ac\uc6d0\ub290\ub08c)", "\uad11\ud76c\ub3d9", "\uc11c\uc6b8\ud2b9\ubcc4\uc2dc", "\uc11c\uc6b8\ud2b9\ubcc4\uc2dc", "\ub300\ud55c\ubbfc\uad6d"]}, "categories": [{"id": "4bf58dd8d48988d138941735", "name": "Mosque", "pluralName": "Mosques", "shortName": "Mosque", "icon": {"prefix": "https://ss3.4sqi.net/img/categories_v2/building/religious_mosque_", "suffix": ".png"}, "primary": true}], "referralId": "v-1563096863", "hasPerk": false}, {"id": "57508078498e07a4cf67fca3", "name": "Hanyang University Masjid (\ud55c\uc591\ub300\ud559\uad50 \ub9c8\uc2a4\uc9c0\ub4dc)", "location": {"address": "\uc81c5\uacf5\ud559\uad00 \uc9c0\ud5581\uce35", "lat": 37.296726, "lng": 126.83707, "labeledLatLngs": [{"label": "display", "lat": 37.296726, "lng": 126.83707}], "distance": 33274, "cc": "KR", "city": "\uc548\uc0b0\uc2dc", "state": "\uacbd\uae30\ub3c4", "country": "\ub300\ud55c\ubbfc\uad6d", "formattedAddress": ["\uc81c5\uacf5\ud559\uad00 \uc9c0\ud5581\uce35", "\uc548\uc0b0\uc2dc", "\uacbd\uae30\ub3c4", "\ub300\ud55c\ubbfc\uad6d"]}, "categories": [{"id": "4bf58dd8d48988d138941735", "name": "Mosque", "pluralName": "Mosques", "shortName": "Mosque", "icon": {"prefix": "https://ss3.4sqi.net/img/categories_v2/building/religious_mosque_", "suffix": ".png"}, "primary": true}], "referralId": "v-1563096863", "hasPerk": false}, {"id": "5691cd6e498ea898878e87f2", "name": "Masjid Al Ikhlas", "location": {"address": "Uijeongbu", "lat": 37.735405, "lng": 127.04138, "labeledLatLngs": [{"label": "display", "lat": 37.735405, "lng": 127.04138}], "distance": 19179, "cc": "KR", "city": "\uc758\uc815\ubd80\uc2dc", "state": "\uacbd\uae30\ub3c4", "country": "\ub300\ud55c\ubbfc\uad6d", "formattedAddress": ["Uijeongbu", "\uc758\uc815\ubd80\uc2dc", "\uacbd\uae30\ub3c4", "\ub300\ud55c\ubbfc\uad6d"]}, "categories": [{"id": "4bf58dd8d48988d138941735", "name": "Mosque", "pluralName": "Mosques", "shortName": "Mosque", "icon": {"prefix": "https://ss3.4sqi.net/img/categories_v2/building/religious_mosque_", "suffix": ".png"}, "primary": true}], "referralId": "v-1563096863", "hasPerk": false}, {"id": "5cd4f674588e36002ccc7c5d", "name": "Masjid Al Falah", "location": {"address": "618-497 Yeongdeungpodong", "crossStreet": "Dekat Stasiun Yeongdeungpo Exit 4", "lat": 37.514373, "lng": 126.907192, "labeledLatLngs": [{"label": "display", "lat": 37.514373, "lng": 126.907192}], "distance": 10004, "cc": "KR", "city": "Yeongdeungpogu", "state": "\uc11c\uc6b8\ud2b9\ubcc4\uc2dc", "country": "\ub300\ud55c\ubbfc\uad6d", "formattedAddress": ["618-497 Yeongdeungpodong (Dekat Stasiun Yeongdeungpo Exit 4)", "\uc601\ub4f1\ud3ec\ubcf8\ub3d9", "Yeongdeungpogu", "\uc11c\uc6b8\ud2b9\ubcc4\uc2dc", "\ub300\ud55c\ubbfc\uad6d"]}, "categories": [{"id": "4bf58dd8d48988d138941735", "name": "Mosque", "pluralName": "Mosques", "shortName": "Mosque", "icon": {"prefix": "https://ss3.4sqi.net/img/categories_v2/building/religious_mosque_", "suffix": ".png"}, "primary": true}], "referralId": "v-1563096863", "hasPerk": false}, {"id": "53689915498e3c353057412a", "name": "Al Ikhlas Mosque", "location": {"address": "\uc758\uc815\ubd803\ub3d9 134-5 3F", "lat": 37.53361504820827, "lng": 126.99789864349478, "labeledLatLngs": [{"label": "display", "lat": 37.53361504820827, "lng": 126.99789864349478}], "distance": 3641, "cc": "KR", "city": "\uc758\uc815\ubd80\uc2dc", "state": "\uacbd\uae30\ub3c4", "country": "\ub300\ud55c\ubbfc\uad6d", "formattedAddress": ["\uc758\uc815\ubd803\ub3d9 134-5 3F", "\ud55c\ub0a8\ub3d9", "\uc758\uc815\ubd80\uc2dc", "\uacbd\uae30\ub3c4", "\ub300\ud55c\ubbfc\uad6d"]}, "categories": [{"id": "4bf58dd8d48988d138941735", "name": "Mosque", "pluralName": "Mosques", "shortName": "Mosque", "icon": {"prefix": "https://ss3.4sqi.net/img/categories_v2/building/religious_mosque_", "suffix": ".png"}, "primary": true}], "referralId": "v-1563096863", "hasPerk": false}, {"id": "4f9a2d07e4b0ad408022b100", "name": "Ansan Mosque (\uc548\uc0b0 \uc774\uc2ac\ub78c \uc13c\ud130)", "location": {"address": "\ub2e8\uc6d0\uad6c \uc6d0\uace1\uacf5\uc6d0\ub85c 16-1", "lat": 37.33321113293041, "lng": 126.79308414459227, "labeledLatLngs": [{"label": "display", "lat": 37.33321113293041, "lng": 126.79308414459227}], "distance": 31728, "postalCode": "15376", "cc": "KR", "city": "\uc548\uc0b0\uc2dc", "state": "\uacbd\uae30\ub3c4", "country": "\ub300\ud55c\ubbfc\uad6d", "formattedAddress": ["\ub2e8\uc6d0\uad6c \uc6d0\uace1\uacf5\uc6d0\ub85c 16-1", "\uc548\uc0b0\uc2dc", "\uacbd\uae30\ub3c4", "15376", "\ub300\ud55c\ubbfc\uad6d"]}, "categories": [{"id": "4bf58dd8d48988d138941735", "name": "Mosque", "pluralName": "Mosques", "shortName": "Mosque", "icon": {"prefix": "https://ss3.4sqi.net/img/categories_v2/building/religious_mosque_", "suffix": ".png"}, "primary": true}], "referralId": "v-1563096863", "hasPerk": false}, {"id": "51fd719e498e4128b9d73963", "name": "Masjid Nurhidayah Anseong", "location": {"lat": 37.01020050048828, "lng": 127.27454376220703, "labeledLatLngs": [{"label": "display", "lat": 37.01020050048828, "lng": 127.27454376220703}], "distance": 66518, "cc": "KR", "country": "\ub300\ud55c\ubbfc\uad6d", "formattedAddress": ["\ub300\ud55c\ubbfc\uad6d"]}, "categories": [{"id": "4bf58dd8d48988d138941735", "name": "Mosque", "pluralName": "Mosques", "shortName": "Mosque", "icon": {"prefix": "https://ss3.4sqi.net/img/categories_v2/building/religious_mosque_", "suffix": ".png"}, "primary": true}], "referralId": "v-1563096863", "hasPerk": false}, {"id": "4bd126a541b9ef3b319dfbe5", "name": "Seoul Central Masjid (\uc11c\uc6b8\uc911\uc559\uc131\uc6d0)", "location": {"address": "\uc6a9\uc0b0\uad6c \uc6b0\uc0ac\ub2e8\ub85c10\uae38 39", "lat": 37.533445640315165, "lng": 126.99780663854928, "labeledLatLngs": [{"label": "display", "lat": 37.533445640315165, "lng": 126.99780663854928}], "distance": 3661, "postalCode": "140-895", "cc": "KR", "city": "\uc11c\uc6b8\ud2b9\ubcc4\uc2dc", "state": "\uc11c\uc6b8\ud2b9\ubcc4\uc2dc", "country": "\ub300\ud55c\ubbfc\uad6d", "formattedAddress": ["\uc6a9\uc0b0\uad6c \uc6b0\uc0ac\ub2e8\ub85c10\uae38 39", "\ud55c\ub0a8\ub3d9", "\uc11c\uc6b8\ud2b9\ubcc4\uc2dc", "\uc11c\uc6b8\ud2b9\ubcc4\uc2dc", "140-895", "\ub300\ud55c\ubbfc\uad6d"]}, "categories": [{"id": "4bf58dd8d48988d138941735", "name": "Mosque", "pluralName": "Mosques", "shortName": "Mosque", "icon": {"prefix": "https://ss3.4sqi.net/img/categories_v2/building/religious_mosque_", "suffix": ".png"}, "primary": true}], "referralId": "v-1563096863", "hasPerk": false}, {"id": "4d4df73a9ee1a35d7cfa2bdf", "name": "\uc131\uac00\uc6d0", "location": {"lat": 37.12102, "lng": 127.379421, "labeledLatLngs": [{"label": "display", "lat": 37.12102, "lng": 127.379421}], "distance": 59885, "cc": "KR", "city": "\uc6a9\uc778\uc2dc", "state": "\uacbd\uae30\ub3c4", "country": "\ub300\ud55c\ubbfc\uad6d", "formattedAddress": ["\uc6a9\uc778\uc2dc", "\uacbd\uae30\ub3c4", "\ub300\ud55c\ubbfc\uad6d"]}, "categories": [{"id": "4bf58dd8d48988d138941735", "name": "Mosque", "pluralName": "Mosques", "shortName": "Mosque", "icon": {"prefix": "https://ss3.4sqi.net/img/categories_v2/building/religious_mosque_", "suffix": ".png"}, "primary": true}], "referralId": "v-1563096863", "hasPerk": false}, {"id": "4dbbf42193a08f9274b0a0c6", "name": "MASJID AL FALLAH", "location": {"address": "\uad6c\ub85c\uad6c \uad6c\ub85c\ub3d9\ub85c42\uae38 6", "lat": 37.496003, "lng": 126.883112, "labeledLatLngs": [{"label": "display", "lat": 37.496003, "lng": 126.883112}], "distance": 12929, "cc": "KR", "city": "\uc11c\uc6b8\ud2b9\ubcc4\uc2dc", "state": "\uc11c\uc6b8\ud2b9\ubcc4\uc2dc", "country": "\ub300\ud55c\ubbfc\uad6d", "formattedAddress": ["\uad6c\ub85c\uad6c \uad6c\ub85c\ub3d9\ub85c42\uae38 6", "\uad6c\ub85c2\ub3d9", "\uc11c\uc6b8\ud2b9\ubcc4\uc2dc", "\uc11c\uc6b8\ud2b9\ubcc4\uc2dc", "\ub300\ud55c\ubbfc\uad6d"]}, "categories": [{"id": "4bf58dd8d48988d138941735", "name": "Mosque", "pluralName": "Mosques", "shortName": "Mosque", "icon": {"prefix": "https://ss3.4sqi.net/img/categories_v2/building/religious_mosque_", "suffix": ".png"}, "primary": true}], "referralId": "v-1563096863", "hasPerk": false}, {"id": "5b62f0d0588e36002c449375", "name": "Jamia Abu Bakar Sidiq (\uc790\ubbf8\uc544\ub458 \uc544\ubd80\ubc14\uce74\ub974 \uc2dc\ub514\uadf8)", "location": {"lat": 37.29755, "lng": 126.969055, "labeledLatLngs": [{"label": "display", "lat": 37.29755, "lng": 126.969055}], "distance": 30039, "postalCode": "440-320", "cc": "KR", "city": "\uc218\uc6d0\uc2dc", "state": "\uacbd\uae30\ub3c4", "country": "\ub300\ud55c\ubbfc\uad6d", "formattedAddress": ["\uc218\uc6d0\uc2dc", "\uacbd\uae30\ub3c4", "440-320", "\ub300\ud55c\ubbfc\uad6d"]}, "categories": [{"id": "4bf58dd8d48988d138941735", "name": "Mosque", "pluralName": "Mosques", "shortName": "Mosque", "icon": {"prefix": "https://ss3.4sqi.net/img/categories_v2/building/religious_mosque_", "suffix": ".png"}, "primary": true}], "referralId": "v-1563096863", "hasPerk": false}, {"id": "506e59fde4b0f4cc1cf98be5", "name": "Bupyeong Central Masjid (\ubd80\ud3c9\uc911\uc548\uc131\uc6d0)", "location": {"lat": 37.47929936051479, "lng": 126.71046767672381, "labeledLatLngs": [{"label": "display", "lat": 37.47929936051479, "lng": 126.71046767672381}], "distance": 27310, "cc": "KR", "country": "\ub300\ud55c\ubbfc\uad6d", "formattedAddress": ["\ub300\ud55c\ubbfc\uad6d"]}, "categories": [{"id": "4bf58dd8d48988d138941735", "name": "Mosque", "pluralName": "Mosques", "shortName": "Mosque", "icon": {"prefix": "https://ss3.4sqi.net/img/categories_v2/building/religious_mosque_", "suffix": ".png"}, "primary": true}], "referralId": "v-1563096863", "hasPerk": false}, {"id": "4d9219d75f33b1f72f827c7e", "name": "\uc548\uc554 \uc774\uc2ac\ub78c\uc0ac\uc6d0", "location": {"lat": 37.584045, "lng": 127.032216, "labeledLatLngs": [{"label": "display", "lat": 37.584045, "lng": 127.032216}], "distance": 3483, "cc": "KR", "city": "\uc11c\uc6b8\ud2b9\ubcc4\uc2dc", "state": "\uc11c\uc6b8\ud2b9\ubcc4\uc2dc", "country": "\ub300\ud55c\ubbfc\uad6d", "formattedAddress": ["\uc81c\uae30\ub3d9", "\ub3d9\ub300\ubb38\uad6c", "\uc11c\uc6b8\ud2b9\ubcc4\uc2dc", "\ub300\ud55c\ubbfc\uad6d"]}, "categories": [{"id": "4bf58dd8d48988d138941735", "name": "Mosque", "pluralName": "Mosques", "shortName": "Mosque", "icon": {"prefix": "https://ss3.4sqi.net/img/categories_v2/building/religious_mosque_", "suffix": ".png"}, "primary": true}], "referralId": "v-1563096863", "hasPerk": false}, {"id": "59e2f20c8c35dc0a121b2e81", "name": "Nurhidayah Mosque Anseong", "location": {"lat": 37.01045, "lng": 127.27441, "labeledLatLngs": [{"label": "display", "lat": 37.01045, "lng": 127.27441}], "distance": 66487, "postalCode": "456-070", "cc": "KR", "city": "\uc548\uc131", "state": "\uacbd\uae30\ub3c4", "country": "\ub300\ud55c\ubbfc\uad6d", "formattedAddress": ["\uc548\uc131", "\uacbd\uae30\ub3c4", "456-070", "\ub300\ud55c\ubbfc\uad6d"]}, "categories": [{"id": "4bf58dd8d48988d138941735", "name": "Mosque", "pluralName": "Mosques", "shortName": "Mosque", "icon": {"prefix": "https://ss3.4sqi.net/img/categories_v2/building/religious_mosque_", "suffix": ".png"}, "primary": true}], "referralId": "v-1563096863", "hasPerk": false}, {"id": "4f374079e4b0ea2d7dc1c3ca", "name": "Prayer room (\ub0a8\uc774\uc12c \uae30\ub3c4\uc2e4)", "location": {"lat": 37.78795678300728, "lng": 127.5213031688378, "labeledLatLngs": [{"label": "display", "lat": 37.78795678300728, "lng": 127.5213031688378}], "distance": 52161, "cc": "KR", "country": "\ub300\ud55c\ubbfc\uad6d", "formattedAddress": ["\ub300\ud55c\ubbfc\uad6d"]}, "categories": [{"id": "4bf58dd8d48988d138941735", "name": "Mosque", "pluralName": "Mosques", "shortName": "Mosque", "icon": {"prefix": "https://ss3.4sqi.net/img/categories_v2/building/religious_mosque_", "suffix": ".png"}, "primary": true}], "referralId": "v-1563096863", "hasPerk": false}, {"id": "5c9f662179f6c7002cb6533c", "name": "\u0645\u0633\u062c\u062f \u0633\u064a\u0648\u0644 \u0627\u0644\u0645\u0631\u0643\u0632\u064a ( \u0627\u0644\u0644\u0647 \u0623\u0643\u0628\u0631 )", "location": {"lat": 37.533395, "lng": 126.997889, "labeledLatLngs": [{"label": "display", "lat": 37.533395, "lng": 126.997889}], "distance": 3666, "cc": "KR", "city": "\uc6a9\uc0b0\uad6c", "state": "\uc11c\uc6b8\ud2b9\ubcc4\uc2dc", "country": "\ub300\ud55c\ubbfc\uad6d", "formattedAddress": ["\ud55c\ub0a8\ub3d9", "\uc6a9\uc0b0\uad6c", "\uc11c\uc6b8\ud2b9\ubcc4\uc2dc", "\ub300\ud55c\ubbfc\uad6d"]}, "categories": [{"id": "4bf58dd8d48988d138941735", "name": "Mosque", "pluralName": "Mosques", "shortName": "Mosque", "icon": {"prefix": "https://ss3.4sqi.net/img/categories_v2/building/religious_mosque_", "suffix": ".png"}, "primary": true}], "referralId": "v-1563096863", "hasPerk": false}, {"id": "51f2183c498ebc4842854ccc", "name": "Muslim prayer room Airport \uae30\ub3c4\uc2e4 (surau)", "location": {"lat": 37.45223456975747, "lng": 126.45156100067464, "labeledLatLngs": [{"label": "display", "lat": 37.45223456975747, "lng": 126.45156100067464}], "distance": 50040, "cc": "KR", "country": "\ub300\ud55c\ubbfc\uad6d", "formattedAddress": ["\ub300\ud55c\ubbfc\uad6d"]}, "categories": [{"id": "4bf58dd8d48988d138941735", "name": "Mosque", "pluralName": "Mosques", "shortName": "Mosque", "icon": {"prefix": "https://ss3.4sqi.net/img/categories_v2/building/religious_mosque_", "suffix": ".png"}, "primary": true}], "referralId": "v-1563096863", "hasPerk": false}, {"id": "50d6bb3fe4b07f4e641d90a0", "name": "Ashrafia Mosque", "location": {"address": "Inha University", "crossStreet": "Inha-ro", "lat": 37.45196135933965, "lng": 126.65411602901806, "labeledLatLngs": [{"label": "display", "lat": 37.45196135933965, "lng": 126.65411602901806}], "distance": 33064, "cc": "KR", "city": "\uc778\ucc9c\uad11\uc5ed\uc2dc", "state": "\uc778\ucc9c\uad11\uc5ed\uc2dc", "country": "\ub300\ud55c\ubbfc\uad6d", "formattedAddress": ["Inha University (Inha-ro)", "\uc778\ucc9c\uad11\uc5ed\uc2dc", "\uc778\ucc9c\uad11\uc5ed\uc2dc", "\ub300\ud55c\ubbfc\uad6d"]}, "categories": [{"id": "4bf58dd8d48988d138941735", "name": "Mosque", "pluralName": "Mosques", "shortName": "Mosque", "icon": {"prefix": "https://ss3.4sqi.net/img/categories_v2/building/religious_mosque_", "suffix": ".png"}, "primary": true}], "referralId": "v-1563096863", "hasPerk": false}, {"id": "4eaa64b16da1cafdade2975c", "name": "\uc778\ub3c4\ub124\uc2dc\uc548 \ubaa8\uc2a4\ud06c", "location": {"lat": 37.32878714038471, "lng": 126.7969214191787, "labeledLatLngs": [{"label": "display", "lat": 37.32878714038471, "lng": 126.7969214191787}], "distance": 31940, "cc": "KR", "country": "\ub300\ud55c\ubbfc\uad6d", "formattedAddress": ["\ub300\ud55c\ubbfc\uad6d"]}, "categories": [{"id": "4bf58dd8d48988d138941735", "name": "Mosque", "pluralName": "Mosques", "shortName": "Mosque", "icon": {"prefix": "https://ss3.4sqi.net/img/categories_v2/building/religious_mosque_", "suffix": ".png"}, "primary": true}], "referralId": "v-1563096863", "hasPerk": false}, {"id": "4f71b11de4b05d91e3d428d3", "name": "Ryd", "location": {"lat": 37.518240881475194, "lng": 126.97024439748154, "labeledLatLngs": [{"label": "display", "lat": 37.518240881475194, "lng": 126.97024439748154}], "distance": 5948, "cc": "KR", "city": "\uc11c\uc6b8\ud2b9\ubcc4\uc2dc", "state": "\uc11c\uc6b8\ud2b9\ubcc4\uc2dc", "country": "\ub300\ud55c\ubbfc\uad6d", "formattedAddress": ["\uc774\ucd0c1\ub3d9", "\uc11c\uc6b8\ud2b9\ubcc4\uc2dc", "\uc11c\uc6b8\ud2b9\ubcc4\uc2dc", "\ub300\ud55c\ubbfc\uad6d"]}, "categories": [{"id": "4bf58dd8d48988d138941735", "name": "Mosque", "pluralName": "Mosques", "shortName": "Mosque", "icon": {"prefix": "https://ss3.4sqi.net/img/categories_v2/building/religious_mosque_", "suffix": ".png"}, "primary": true}], "referralId": "v-1563096863", "hasPerk": false}, {"id": "51bd5f9a498e9d1a4a59ba12", "name": "Al-Mujahidin Incheon", "location": {"lat": 37.407983976053245, "lng": 126.70073730310449, "labeledLatLngs": [{"label": "display", "lat": 37.407983976053245, "lng": 126.70073730310449}], "distance": 31748, "cc": "KR", "country": "\ub300\ud55c\ubbfc\uad6d", "formattedAddress": ["\ub300\ud55c\ubbfc\uad6d"]}, "categories": [{"id": "4bf58dd8d48988d138941735", "name": "Mosque", "pluralName": "Mosques", "shortName": "Mosque", "icon": {"prefix": "https://ss3.4sqi.net/img/categories_v2/building/religious_mosque_", "suffix": ".png"}, "primary": true}], "referralId": "v-1563096863", "hasPerk": false}, {"id": "529182a111d220387b76b990", "name": "mesjid shirathal mustaqim ansan", "location": {"lat": 37.33314530878221, "lng": 126.79298241677606, "labeledLatLngs": [{"label": "display", "lat": 37.33314530878221, "lng": 126.79298241677606}], "distance": 31739, "cc": "KR", "country": "\ub300\ud55c\ubbfc\uad6d", "formattedAddress": ["\ub300\ud55c\ubbfc\uad6d"]}, "categories": [{"id": "4bf58dd8d48988d138941735", "name": "Mosque", "pluralName": "Mosques", "shortName": "Mosque", "icon": {"prefix": "https://ss3.4sqi.net/img/categories_v2/building/religious_mosque_", "suffix": ".png"}, "primary": true}], "referralId": "v-1563096863", "hasPerk": false}, {"id": "557a6d35498e2f0251f3ff0a", "name": "Gwangju Masjid", "location": {"address": "\uacbd\uae30\ub3c4 \uad11\uc8fc\uc2dc\uc5ed\ub3d9 48-9 (464-807)", "crossStreet": "Near Gwangju Terminal", "lat": 37.406491, "lng": 127.258477, "labeledLatLngs": [{"label": "display", "lat": 37.406491, "lng": 127.258477}], "distance": 28964, "cc": "KR", "city": "Kwangju", "state": "\uacbd\uae30\ub3c4", "country": "\ub300\ud55c\ubbfc\uad6d", "formattedAddress": ["\uacbd\uae30\ub3c4 \uad11\uc8fc\uc2dc\uc5ed\ub3d9 48-9 (464-807) (Near Gwangju Terminal)", "Gwangju", "\uacbd\uae30\ub3c4", "\ub300\ud55c\ubbfc\uad6d"]}, "categories": [{"id": "4bf58dd8d48988d138941735", "name": "Mosque", "pluralName": "Mosques", "shortName": "Mosque", "icon": {"prefix": "https://ss3.4sqi.net/img/categories_v2/building/religious_mosque_", "suffix": ".png"}, "primary": true}], "referralId": "v-1563096863", "hasPerk": false}, {"id": "52201a6311d253c2d58373ef", "name": "Masjid Ashrafia", "location": {"lat": 37.452006, "lng": 126.653825, "labeledLatLngs": [{"label": "display", "lat": 37.452006, "lng": 126.653825}], "distance": 33086, "cc": "KR", "country": "\ub300\ud55c\ubbfc\uad6d", "formattedAddress": ["\ub300\ud55c\ubbfc\uad6d"]}, "categories": [{"id": "4bf58dd8d48988d138941735", "name": "Mosque", "pluralName": "Mosques", "shortName": "Mosque", "icon": {"prefix": "https://ss3.4sqi.net/img/categories_v2/building/religious_mosque_", "suffix": ".png"}, "primary": true}], "referralId": "v-1563096863", "hasPerk": false}, {"id": "50fe3a2ce4b0b707e5543f80", "name": "\ud790\ud0d1\uc624\ud53c\uc2a4\ud154;\uaf43\uc120\ub140\uc2e0\ub2f9", "location": {"address": "\uac15\ub3d9\uad6c \ucc9c\ud638\ub300\ub85c 1073", "lat": 37.53685760498047, "lng": 127.132080078125, "labeledLatLngs": [{"label": "display", "lat": 37.53685760498047, "lng": 127.132080078125}], "distance": 12134, "cc": "KR", "country": "\ub300\ud55c\ubbfc\uad6d", "formattedAddress": ["\uac15\ub3d9\uad6c \ucc9c\ud638\ub300\ub85c 1073", "\ucc9c\ud6383\ub3d9", "\ub300\ud55c\ubbfc\uad6d"]}, "categories": [{"id": "4bf58dd8d48988d138941735", "name": "Mosque", "pluralName": "Mosques", "shortName": "Mosque", "icon": {"prefix": "https://ss3.4sqi.net/img/categories_v2/building/religious_mosque_", "suffix": ".png"}, "primary": true}], "referralId": "v-1563096863", "hasPerk": false}, {"id": "50122b8ae4b0bc7cf47f1ea9", "name": "Prayer Room (muslim)", "location": {"address": "Samsung Engineering GEC, 10th Floor Tower B", "lat": 37.54617887614627, "lng": 127.17852517189452, "labeledLatLngs": [{"label": "display", "lat": 37.54617887614627, "lng": 127.17852517189452}], "distance": 15939, "cc": "KR", "city": "Seoul, Korea", "country": "\ub300\ud55c\ubbfc\uad6d", "formattedAddress": ["Samsung Engineering GEC, 10th Floor Tower B", "Seoul, Korea", "\ub300\ud55c\ubbfc\uad6d"]}, "categories": [{"id": "4bf58dd8d48988d138941735", "name": "Mosque", "pluralName": "Mosques", "shortName": "Mosque", "icon": {"prefix": "https://ss3.4sqi.net/img/categories_v2/building/religious_mosque_", "suffix": ".png"}, "primary": true}], "referralId": "v-1563096863", "hasPerk": false}, {"id": "50d6baa5e4b0db4f367c75b5", "name": "masjid asyaraffiiah", "location": {"lat": 37.4503173828125, "lng": 126.65202331542969, "labeledLatLngs": [{"label": "display", "lat": 37.4503173828125, "lng": 126.65202331542969}], "distance": 33305, "cc": "KR", "country": "\ub300\ud55c\ubbfc\uad6d", "formattedAddress": ["\ub300\ud55c\ubbfc\uad6d"]}, "categories": [{"id": "4bf58dd8d48988d138941735", "name": "Mosque", "pluralName": "Mosques", "shortName": "Mosque", "icon": {"prefix": "https://ss3.4sqi.net/img/categories_v2/building/religious_mosque_", "suffix": ".png"}, "primary": true}], "referralId": "v-1563096863", "hasPerk": false}, {"id": "4e8e7eff490102ea529d0129", "name": "Prayer room Samsung Engineering", "location": {"lat": 37.489437884755546, "lng": 127.0517921623018, "labeledLatLngs": [{"label": "display", "lat": 37.489437884755546, "lng": 127.0517921623018}], "distance": 9713, "cc": "KR", "country": "\ub300\ud55c\ubbfc\uad6d", "formattedAddress": ["\ub3c4\uace12\ub3d9", "\ub300\ud55c\ubbfc\uad6d"]}, "categories": [{"id": "4bf58dd8d48988d138941735", "name": "Mosque", "pluralName": "Mosques", "shortName": "Mosque", "icon": {"prefix": "https://ss3.4sqi.net/img/categories_v2/building/religious_mosque_", "suffix": ".png"}, "primary": true}], "referralId": "v-1563096863", "hasPerk": false}, {"id": "4e67be0618a8bf0571bc4137", "name": "\ubc24\uc774 \uae4a\uc5c8\ub124", "location": {"lat": 37.53944300052273, "lng": 126.9709159448386, "labeledLatLngs": [{"label": "display", "lat": 37.53944300052273, "lng": 126.9709159448386}], "distance": 3923, "cc": "KR", "city": "\uc11c\uc6b8\ud2b9\ubcc4\uc2dc", "state": "\uc11c\uc6b8\ud2b9\ubcc4\uc2dc", "country": "\ub300\ud55c\ubbfc\uad6d", "formattedAddress": ["\ud55c\uac15\ub85c\ub3d9", "\uc11c\uc6b8\ud2b9\ubcc4\uc2dc", "\uc11c\uc6b8\ud2b9\ubcc4\uc2dc", "\ub300\ud55c\ubbfc\uad6d"]}, "categories": [{"id": "4bf58dd8d48988d138941735", "name": "Mosque", "pluralName": "Mosques", "shortName": "Mosque", "icon": {"prefix": "https://ss3.4sqi.net/img/categories_v2/building/religious_mosque_", "suffix": ".png"}, "primary": true}], "referralId": "v-1563096863", "hasPerk": false}, {"id": "52bee60711d21c6e6425c0d9", "name": "Masjid Rabithah, Anyang", "location": {"lat": 37.39133834838867, "lng": 126.92146301269531, "labeledLatLngs": [{"label": "display", "lat": 37.39133834838867, "lng": 126.92146301269531}], "distance": 20666, "cc": "KR", "country": "\ub300\ud55c\ubbfc\uad6d", "formattedAddress": ["\ub300\ud55c\ubbfc\uad6d"]}, "categories": [{"id": "4bf58dd8d48988d138941735", "name": "Mosque", "pluralName": "Mosques", "shortName": "Mosque", "icon": {"prefix": "https://ss3.4sqi.net/img/categories_v2/building/religious_mosque_", "suffix": ".png"}, "primary": true}], "referralId": "v-1563096863", "hasPerk": false}, {"id": "4f2d4b04e4b0479649254f88", "name": "IKMI GURO - S.KOREA", "location": {"lat": 37.495508522440765, "lng": 126.88814855221523, "labeledLatLngs": [{"label": "display", "lat": 37.495508522440765, "lng": 126.88814855221523}], "distance": 12612, "cc": "KR", "country": "\ub300\ud55c\ubbfc\uad6d", "formattedAddress": ["\uad6c\ub85c2\ub3d9", "\ub300\ud55c\ubbfc\uad6d"]}, "categories": [{"id": "4bf58dd8d48988d138941735", "name": "Mosque", "pluralName": "Mosques", "shortName": "Mosque", "icon": {"prefix": "https://ss3.4sqi.net/img/categories_v2/building/religious_mosque_", "suffix": ".png"}, "primary": true}], "referralId": "v-1563096863", "hasPerk": false}, {"id": "4da04617c41ca143351544a3", "name": "\uc131\uc218 \ubb34\uc194\ub77c", "location": {"lat": 37.550781, "lng": 127.060811, "labeledLatLngs": [{"label": "display", "lat": 37.550781, "lng": 127.060811}], "distance": 5662, "postalCode": "133-837", "cc": "KR", "city": "\uc11c\uc6b8\ud2b9\ubcc4\uc2dc", "state": "\uc11c\uc6b8\ud2b9\ubcc4\uc2dc", "country": "\ub300\ud55c\ubbfc\uad6d", "formattedAddress": ["\uc6a9\ub2f5\ub3d9", "\uc11c\uc6b8\ud2b9\ubcc4\uc2dc", "\uc11c\uc6b8\ud2b9\ubcc4\uc2dc", "133-837", "\ub300\ud55c\ubbfc\uad6d"]}, "categories": [{"id": "4bf58dd8d48988d138941735", "name": "Mosque", "pluralName": "Mosques", "shortName": "Mosque", "icon": {"prefix": "https://ss3.4sqi.net/img/categories_v2/building/religious_mosque_", "suffix": ".png"}, "primary": true}], "referralId": "v-1563096863", "hasPerk": false}, {"id": "4ef45c236c250742262bb215", "name": "Surau Anyang", "location": {"address": "Anyang", "lat": 37.391206, "lng": 126.921267, "labeledLatLngs": [{"label": "display", "lat": 37.391206, "lng": 126.921267}], "distance": 20686, "cc": "KR", "country": "\ub300\ud55c\ubbfc\uad6d", "formattedAddress": ["Anyang", "\ub300\ud55c\ubbfc\uad6d"]}, "categories": [{"id": "4bf58dd8d48988d138941735", "name": "Mosque", "pluralName": "Mosques", "shortName": "Mosque", "icon": {"prefix": "https://ss3.4sqi.net/img/categories_v2/building/religious_mosque_", "suffix": ".png"}, "primary": true}], "referralId": "v-1563096863", "hasPerk": false}, {"id": "4d7340b68e12b1f7169a4705", "name": "Surau Al-Amin", "location": {"address": "Joyang Opistel", "crossStreet": "Gocheok-dong", "lat": 37.49972, "lng": 126.866128, "labeledLatLngs": [{"label": "display", "lat": 37.49972, "lng": 126.866128}], "distance": 13927, "cc": "KR", "city": "\uad6c\ub85c\uad6c", "state": "\uc11c\uc6b8\ud2b9\ubcc4\uc2dc", "country": "\ub300\ud55c\ubbfc\uad6d", "formattedAddress": ["Joyang Opistel (Gocheok-dong)", "\uace0\ucc991\ub3d9", "\uad6c\ub85c\uad6c", "\uc11c\uc6b8\ud2b9\ubcc4\uc2dc", "\ub300\ud55c\ubbfc\uad6d"]}, "categories": [{"id": "4bf58dd8d48988d138941735", "name": "Mosque", "pluralName": "Mosques", "shortName": "Mosque", "icon": {"prefix": "https://ss3.4sqi.net/img/categories_v2/building/religious_mosque_", "suffix": ".png"}, "primary": true}], "referralId": "v-1563096863", "hasPerk": false}, {"id": "4f5067dce4b0b5f9a50e95df", "name": "Rumah Program", "location": {"lat": 37.58506214180638, "lng": 127.03015566898088, "labeledLatLngs": [{"label": "display", "lat": 37.58506214180638, "lng": 127.03015566898088}], "distance": 3403, "cc": "KR", "country": "\ub300\ud55c\ubbfc\uad6d", "formattedAddress": ["\uc548\uc554\ub3d9", "\ub300\ud55c\ubbfc\uad6d"]}, "categories": [{"id": "4bf58dd8d48988d138941735", "name": "Mosque", "pluralName": "Mosques", "shortName": "Mosque", "icon": {"prefix": "https://ss3.4sqi.net/img/categories_v2/building/religious_mosque_", "suffix": ".png"}, "primary": true}], "referralId": "v-1563096863", "hasPerk": false}, {"id": "51bd725d498efb7c1e8c3b68", "name": "\ubc14\ud558\uc774 \ud55c\uad6d\ubcf8\ubd80", "location": {"lat": 37.546815, "lng": 126.978297, "labeledLatLngs": [{"label": "display", "lat": 37.546815, "lng": 126.978297}], "distance": 2876, "cc": "KR", "country": "\ub300\ud55c\ubbfc\uad6d", "formattedAddress": ["\ud6c4\uc554\ub3d9", "\ub300\ud55c\ubbfc\uad6d"]}, "categories": [{"id": "4bf58dd8d48988d138941735", "name": "Mosque", "pluralName": "Mosques", "shortName": "Mosque", "icon": {"prefix": "https://ss3.4sqi.net/img/categories_v2/building/religious_mosque_", "suffix": ".png"}, "primary": true}], "referralId": "v-1563096863", "hasPerk": false}], "confident": false}}